{
  "city": "Βιέννη",
  "activities": [
    {
      "name": "Palace Ticket - Schönbrunn Palace",
      "desc": "Βασικό εισιτήριο για τα κρατικά/ιδιωτικά διαμερίσματα με audio-guide. Timed entry.",
      "prices": {"0-2":0,"3-5":0,"6-14":28,"15-19":31.5,"18+":38},
      "lat": 48.1845,
      "lng": 16.3122,
      "restaurant": "<a href='https://maps.google.com/?q=Cafe+Residenz+Schönbrunn+Vienna' target='_blank'>Café Residenz</a> - μέσα στο Schönbrunn",
      "website": "https://www.schoenbrunn.at/en/",
      "note": "Σχολικές ομάδες (6-18): €18.00"
    },
    {
      "name": "State Apartments / Guided Tour Maria Theresia",
      "desc": "Σύντομη ξενάγηση ή θεματική ξενάγηση μεγαλύτερης διάρκειας.",
      "prices": {"0-2":0,"3-5":0,"6-14":19,"15-19":29,"18+":39},
      "lat": 48.1846,
      "lng": 16.3123,
      "restaurant": "<a href='https://maps.google.com/?q=Figlmüller+Vienna' target='_blank'>Figlmüller</a> - διάσημο για schnitzel",
      "website": "https://www.schoenbrunn.at/en/"
    },
    {
      "name": "Sisi Pass (3 αυτοκρατορικά αξιοθέατα)",
      "desc": "Schönbrunn Palace + Sisi Museum (Hofburg) + Vienna Furniture Museum. Χωρίς timeslot για μουσεία.",
      "prices": {"0-2":0,"3-5":0,"6-14":37,"15-19":37,"18+":57},
      "lat": 48.2058,
      "lng": 16.3698,
      "restaurant": "<a href='https://maps.google.com/?q=Cafe+Central+Vienna' target='_blank'>Café Central</a> - ιστορικό καφέ",
      "website": "https://www.schoenbrunn.at/en/",
      "note": "Εκπτωτικό combo για 3 αξιοθέατα"
    },
    {
      "name": "Winter Pass (χειμερινή περίοδος)",
      "desc": "Palace Ticket + Zoo + Desert House + Palm House. Ισχύει 3 Nov 2025–26 Mar 2026.",
      "prices": {"0-2":0,"3-5":0,"6-14":47,"15-19":47,"18+":69},
      "lat": 48.1847,
      "lng": 16.3124,
      "restaurant": "<a href='https://maps.google.com/?q=Schweizerhaus+Vienna' target='_blank'>Schweizerhaus</a> - πέρδικα και μπύρα",
      "website": "https://www.schoenbrunn.at/en/",
      "seasonal": true
    },
    {
      "name": "Classic Pass (καλοκαιρινή περίοδος)",
      "desc": "Palace Ticket + Privy Garden + Maze & Labyrinth + Orangery Garden + Gloriette terrace.",
      "prices": {"0-2":0,"3-5":0,"6-14":28,"15-19":31,"18+":40},
      "lat": 48.1848,
      "lng": 16.3125,
      "restaurant": "<a href='https://maps.google.com/?q=Cafe+Gloriette+Vienna' target='_blank'>Café Gloriette</a> - με θέα",
      "website": "https://www.schoenbrunn.at/en/",
      "note": "Ιδανικό για μονοήμερη επίσκεψη"
    },
    {
      "name": "Classic Pass Plus (πλήρες πακέτο)",
      "desc": "Classic Pass + Zoo + Desert House + Palm House - σχεδόν όλο το Schönbrunn.",
      "prices": {"0-2":0,"3-5":0,"6-14":53.5,"15-19":53.5,"18+":76},
      "lat": 48.1849,
      "lng": 16.3126,
      "restaurant": "<a href='https://maps.google.com/?q=Tiergarten+Restaurant+Vienna' target='_blank'>Tiergarten Restaurant</a> - στο zoo",
      "website": "https://zoovienna.at/",
      "note": "20-30% εξοικονόμηση"
    },
    {
      "name": "Children's Museum (Kindermuseum)",
      "desc": "Διαδραστικό μουσείο για παιδιά 3-18 ετών με συνδυαστικά tickets.",
      "prices": {"0-2":0,"3-5":12,"6-14":12,"15-19":12,"18+":12},
      "lat": 48.1850,
      "lng": 16.3127,
      "restaurant": "<a href='https://maps.google.com/?q=Cafe+Kindermuseum+Vienna' target='_blank'>Cafe Kindermuseum</a>",
      "website": "https://www.schoenbrunn.at/en/"
    },
    {
      "name": "Zoo Vienna - Family Block Ticket",
      "desc": "5 εισιτήρια (2 adults + 3 children/adolescents) - ισχύει 1 χρόνο.",
      "prices": {"0-2":0,"3-5":19.2,"6-14":19.2,"15-19":19.2,"18+":19.2},
      "lat": 48.1800,
      "lng": 16.3028,
      "restaurant": "<a href='https://maps.google.com/?q=Tiergarten+Cafe+Vienna' target='_blank'>Tiergarten Cafe</a>",
      "website": "https://zoovienna.at/",
      "note": "Σύνολο: €96 για 5 άτομα"
    },
    {
      "name": "Zoo + Palm House + Desert House Combo",
      "desc": "Συνδυαστικό εισιτήριο για μία επίσκεψη σε κάθε αξιοθέατο.",
      "prices": {"0-2":0,"3-5":22.5,"6-14":22.5,"15-19":22.5,"18+":36},
      "lat": 48.1801,
      "lng": 16.3029,
      "restaurant": "<a href='https://maps.google.com/?q=Palm+House+Cafe+Vienna' target='_blank'>Palm House Cafe</a>",
      "website": "https://zoovienna.at/",
      "note": "Ιδανικό για οικογενείες"
    },
    {
      "name": "Haus des Meeres (Aqua Terra Zoo)",
      "desc": "Ενυδρείο και μικρός ζωολογικός κήπος στο κέντρο της Βιέννης.",
      "prices": {"0-2":0,"3-5":6.5,"6-14":9.8,"15-19":22.9,"18+":22.9},
      "lat": 48.2050,
      "lng": 16.3575,
      "restaurant": "<a href='https://maps.google.com/?q=Cafe+Ritter+Mariahilfer+Straße+Vienna' target='_blank'>Café Ritter</a> - Mariahilfer Straße",
      "website": "https://www.haus-des-meeres.at/en"
    },
    {
      "name": "Time Travel Vienna",
      "desc": "Διαδραστικό ταξίδι 2000 χρόνων ιστορίας της Βιέννης.",
      "prices": {"0-2":0,"3-5":0,"6-14":18,"15-19":22,"18+":22},
      "lat": 48.2084,
      "lng": 16.3731,
      "restaurant": "<a href='https://maps.google.com/?q=Time+Travel+Cafe+Vienna' target='_blank'>Time Travel Cafe</a>",
      "website": "https://www.timetravel-vienna.at/en"
    },
    {
      "name": "Sisi's Amazing Journey (VR Experience)",
      "desc": "VR εμπειρία για τη ζωή της αυτοκράτειρας Σίσσι.",
      "prices": {"0-2":0,"3-5":0,"6-14":14,"15-19":14,"18+":14},
      "lat": 48.2058,
      "lng": 16.3698,
      "restaurant": "<a href='https://maps.google.com/?q=VR+Cafe+Vienna' target='_blank'>VR Experience Cafe</a>",
      "website": "https://www.hofburg-wien.at/en/",
      "note": "Combo με Time Travel διαθέσιμο"
    },
    {
      "name": "House of Music (Haus der Musik)",
      "desc": "Διαδραστικό μουσείο μουσικής για όλες τις ηλικίες.",
      "prices": {"0-2":0,"3-5":10,"6-14":10,"15-19":22,"18+":22},
      "lat": 48.2032,
      "lng": 16.3738,
      "restaurant": "<a href='https://maps.google.com/?q=Cafe+Schwarzenberg+Vienna' target='_blank'>Café Schwarzenberg</a>",
      "website": "https://www.hausdermusik.com/en",
      "familyTicket": "2 adults + up to 3 children = 35€"
    },
    {
      "name": "Museum der Illusionen (Μουσείο Ψευδαισθήσεων)",
      "desc": "Οπτικές ψευδαισθήσεις και διαδραστικά εκθέματα.",
      "prices": {"0-2":0,"3-5":0,"6-14":10,"15-19":12,"18+":14},
      "lat": 48.2095,
      "lng": 16.3702,
      "restaurant": "<a href='https://maps.google.com/?q=Illusions+Cafe+Vienna' target='_blank'>Illusions Cafe</a>",
      "website": "https://www.museumderillusionen.at/wien/"
    },
    {
      "name": "Vienna State Opera Tour",
      "desc": "Ξενάγηση στο ιστορικό κτήριο της όπερας.",
      "prices": {"0-2":0,"3-5":0,"6-14":9,"15-19":15,"18+":15},
      "lat": 48.2034,
      "lng": 16.3692,
      "restaurant": "<a href='https://maps.google.com/?q=Cafe+Sacher+Vienna' target='_blank'>Café Sacher</a> - για Sachertorte",
      "website": "https://www.wiener-staatsoper.at/en/"
    },
    {
      "name": "Belvedere Palace (Upper/Lower)",
      "desc": "Αυτοκρατορικό παλάτι με μόνιμη συλλογή τέχνης.",
      "prices": {"0-2":0,"3-5":0,"6-14":0,"15-19":0,"18+":29},
      "lat": 48.1910,
      "lng": 16.3805,
      "restaurant": "<a href='https://maps.google.com/?q=Salm+Bräu+Vienna' target='_blank'>Salm Bräu</a> - μπύρα και κουζίνα",
      "website": "https://www.belvedere.at/en",
      "note": "Δωρεάν για κάτω των 19 (μόνιμη συλλογή)"
    },
    {
      "name": "Donauturm (Danube Tower)",
      "desc": "Πανοραμική θέα της Βιέννης από τον πύργο του Δούναβη.",
      "prices": {"0-2":0,"3-5":4,"6-14":8,"15-19":12,"18+":12},
      "lat": 48.2389,
      "lng": 16.4103,
      "restaurant": "<a href='https://maps.google.com/?q=Donauturm+Restaurant+Vienna' target='_blank'>Donauturm Restaurant</a> - στροφείο",
      "website": "https://www.donauturm.at/en/"
    },
    {
      "name": "Mozarthaus Vienna",
      "desc": "Το σπίτι όπου έζησε ο Mozart, τώρα μουσείο.",
      "prices": {"0-2":0,"3-5":4.5,"6-14":4.5,"15-19":14,"18+":14},
      "lat": 48.2086,
      "lng": 16.3735,
      "restaurant": "<a href='https://maps.google.com/?q=Cafe+Mozart+Vienna' target='_blank'>Café Mozart</a> - κλασικό",
      "website": "https://www.mozarthausvienna.at/en/",
      "familyTicket": "2 adults + up to 3 children = 29€"
    },
    {
      "name": "St. Stephen's Cathedral Crypt",
      "desc": "Επίσκεψη στην κρύπτη του διάσημου καθεδρικού ναού.",
      "prices": {"0-2":0,"3-5":0,"6-14":3,"15-19":5,"18+":5},
      "lat": 48.2085,
      "lng": 16.3730,
      "restaurant": "<a href='https://maps.google.com/?q=Do+Co+Stephansplatz+Vienna' target='_blank'>Do & Co</a> - με θέα",
      "website": "https://www.stephanskirche.at/"
    },
    {
      "name": "Spanish Riding School",
      "desc": "Προπόνηση των διάσημων ίππων Lipizzaner. ⚠️ <strong>Ηλικιακοί περιορισμοί:</strong> Παιδιά κάτω 3 ετών: ΑΔΥΝΑΤΗ ΕΙΣΟΔΟΣ | 3-5 ετών: Μόνο σε family performances",
      "prices": {"0-2":"N/A","3-5":8,"6-14":14,"15-19":16,"18+":16},
      "lat": 48.2068,
      "lng": 16.3675,
      "restaurant": "<a href='https://maps.google.com/?q=Griechenbeisl+Vienna' target='_blank'>Griechenbeisl</a> - παλαιότερο εστιατόριο",
      "website": "https://www.srs.at/en/",
      "ageRestrictions": true,
      "minAge": 3,
      "ageWarning": "⚠️ Παιδιά κάτω των 3 ετών ΔΕΝ επιτρέπονται. 3-5 ετών: μόνο σε family performances"
    }
  ]
}
